[
  {
    "Shaun": "1",
    "arrival_time": "5:54:00 PM",
    "departure_time": "5:54:00 PM",
    "latitude": "39.742018",
    "longitude": "-75.551716",
    "route_name": "Philadelphia Pike",
    "shape_id": "22603",
    "stop_id": "1",
    "stop_name": "ORANGE ST @ 5TH ST",
    "stop_sequence": "1",
    "trip_id": "297432"
  },
  {
    "Shaun": "1",
    "arrival_time": "5:57:12 PM",
    "departure_time": "5:57:12 PM",
    "latitude": "39.744921",
    "longitude": "-75.549674",
    "route_name": "Philadelphia Pike",
    "shape_id": "22603",
    "stop_id": "74",
    "stop_name": "ORANGE ST & 9TH ST",
    "stop_sequence": "2",
    "trip_id": "297432"
  },
  {
    "Shaun": "1",
    "arrival_time": "6:00:00 PM",
    "departure_time": "6:00:00 PM",
    "latitude": "39.746129",
    "longitude": "-75.546627",
    "route_name": "Philadelphia Pike",
    "shape_id": "22603",
    "stop_id": "4",
    "stop_name": "11TH ST & KING ST",
    "stop_sequence": "3",
    "trip_id": "297432"
  },
  {
    "Shaun": "1",
    "arrival_time": "6:01:34 PM",
    "departure_time": "6:01:34 PM",
    "latitude": "39.748296",
    "longitude": "-75.543573",
    "route_name": "Philadelphia Pike",
    "shape_id": "22603",
    "stop_id": "5",
    "stop_name": "FRENCH ST & 14TH ST",
    "stop_sequence": "4",
    "trip_id": "297432"
  },
  {
    "Shaun": "1",
    "arrival_time": "6:03:30 PM",
    "departure_time": "6:03:30 PM",
    "latitude": "39.751766",
    "longitude": "-75.541835",
    "route_name": "Philadelphia Pike",
    "shape_id": "22603",
    "stop_id": "6",
    "stop_name": "MARKET ST & OP 20TH ST",
    "stop_sequence": "5",
    "trip_id": "297432"
  },
  {
    "Shaun": "1",
    "arrival_time": "6:03:54 PM",
    "departure_time": "6:03:54 PM",
    "latitude": "39.752304",
    "longitude": "-75.540672",
    "route_name": "Philadelphia Pike",
    "shape_id": "22603",
    "stop_id": "7",
    "stop_name": "MARKET ST & VANDEVER AVE",
    "stop_sequence": "6",
    "trip_id": "297432"
  },
  {
    "Shaun": "1",
    "arrival_time": "6:04:35 PM",
    "departure_time": "6:04:35 PM",
    "latitude": "39.753147",
    "longitude": "-75.538711",
    "route_name": "Philadelphia Pike",
    "shape_id": "22603",
    "stop_id": "8",
    "stop_name": "MARKET ST & 23RD ST",
    "stop_sequence": "7",
    "trip_id": "297432"
  },
  {
    "Shaun": "1",
    "arrival_time": "6:05:15 PM",
    "departure_time": "6:05:15 PM",
    "latitude": "39.754002",
    "longitude": "-75.536834",
    "route_name": "Philadelphia Pike",
    "shape_id": "22603",
    "stop_id": "3817",
    "stop_name": "MARKET ST & 25TH ST",
    "stop_sequence": "8",
    "trip_id": "297432"
  },
  {
    "Shaun": "1",
    "arrival_time": "6:05:34 PM",
    "departure_time": "6:05:34 PM",
    "latitude": "39.754344",
    "longitude": "-75.535881",
    "route_name": "Philadelphia Pike",
    "shape_id": "22603",
    "stop_id": "9",
    "stop_name": "MARKET ST & 26TH ST",
    "stop_sequence": "9",
    "trip_id": "297432"
  }
]